{"type":"FeatureCollection","features":[{"type":"Feature","properties":{"Name":"Yosemite","Link":"https://en.wikipedia.org/wiki/Yosemite_National_Park"},"geometry":{"type":"Point","coordinates":[-119.56146240234375,37.80978395301097]}},{"type":"Feature","properties":{"Name":"Channel Islands","Link":"https://en.wikipedia.org/wiki/Channel_Islands_National_Park"},"geometry":{"type":"Point","coordinates":[-120.11352539062499,33.925129700072]}},{"type":"Feature","properties":{"Name":"Joshua Tree","Link":"https://en.wikipedia.org/wiki/Joshua_Tree_National_Park"},"geometry":{"type":"Point","coordinates":[-115.82885742187499,33.715201644740844]}},{"type":"Feature","properties":{"Name":"Denali","Link":"https://en.wikipedia.org/wiki/Denali_National_Park_and_Preserve"},"geometry":{"type":"Point","coordinates":[-150.5,63.33]}},{"type":"Feature","properties":{"Name":"Grand Canyon","Link":"https://en.wikipedia.org/wiki/Grand_Canyon_National_Park"},"geometry":{"type":"Point","coordinates":[-112.14,36.06]}},{"type":"Feature","properties":{"Name":"HaleakalƒÅ","Link":"https://en.wikipedia.org/wiki/Haleakal%C4%81_National_Park"},"geometry":{"type":"Point","coordinates":[-156.17,20.72]}},{"type":"Feature","properties":{"Name":"Katmai","Link":"https://en.wikipedia.org/wiki/Katmai_National_Park_and_Preserve"},"geometry":{"type":"Point","coordinates":[-155,58.5]}},{"type":"Feature","properties":{"Name":"North Cascades","Link":"https://en.wikipedia.org/wiki/North_Cascades_National_Park"},"geometry":{"type":"Point","coordinates":[-121.2,48.7]}},{"type":"Feature","properties":{"Name":"Pinnicles","Link":"https://en.wikipedia.org/wiki/Pinnacles_National_Park"},"geometry":{"type":"Point","coordinates":[-121.16,36.48]}},{"type":"Feature","properties":{"Name":"Zion","Link":"https://en.wikipedia.org/wiki/Zion_National_Park"},"geometry":{"type":"Point","coordinates":[-113.05,37.3]}}]}